{"term":"azuay,ecuador","moresuggestions":10,"autoSuggestInstance":null,"trackingID":"fb666bb7087d466db1120cd197945417","misspellingfallback":false,"suggestions":[{"group":"CITY_GROUP","entities":[{"geoId":"932","destinationId":"1756733","landmarkCityDestinationId":null,"type":"CITY","redirectPage":"DEFAULT_PAGE","latitude":-2.898429,"longitude":-79.00612,"searchDetail":null,"caption":"Cuenca, Cuenca, Azuay, Ecuador","name":"Cuenca"},{"geoId":"6352745","destinationId":"1904015","landmarkCityDestinationId":null,"type":"CITY","redirectPage":"DEFAULT_PAGE","latitude":-2.98304422627424,"longitude":-79.2253062140493,"searchDetail":null,"caption":"Banos, Azuay, Ecuador","name":"Banos"},{"geoId":"739208699751190528","destinationId":"739208699751190528","landmarkCityDestinationId":null,"type":"CITY","redirectPage":"DEFAULT_PAGE","latitude":-3.1081507949320994,"longitude":-79.39026809137778,"searchDetail":null,"caption":"Shagli, Azuay, Ecuador","name":"Shagli"},{"geoId":"553248635975853534","destinationId":"12524786","landmarkCityDestinationId":null,"type":"CITY","redirectPage":"DEFAULT_PAGE","latitude":-2.8069405,"longitude":-79.00727100000002,"searchDetail":null,"caption":"San Luis, Azuay, Ecuador","name":"San Luis"},{"geoId":"739208594822287360","destinationId":"739208594822287360","landmarkCityDestinationId":null,"type":"CITY","redirectPage":"DEFAULT_PAGE","latitude":-2.961720954149792,"longitude":-78.824467992699,"searchDetail":null,"caption":"San Juan, Azuay, Ecuador","name":"San Juan"},{"geoId":"6353471","destinationId":"1904738","landmarkCityDestinationId":null,"type":"CITY","redirectPage":"DEFAULT_PAGE","latitude":-2.6280236938293737,"longitude":-78.52552977771,"searchDetail":null,"caption":"Amaluza, Azuay, Ecuador","name":"Amaluza"},{"geoId":"553248635975864372","destinationId":"12524411","landmarkCityDestinationId":null,"type":"CITY","redirectPage":"DEFAULT_PAGE","latitude":-2.8627576907846572,"longitude":-78.89284464407703,"searchDetail":null,"caption":"Nulti, Azuay, Ecuador","name":"Nulti"},{"geoId":"739208367022960640","destinationId":"739208367022960640","landmarkCityDestinationId":null,"type":"CITY","redirectPage":"DEFAULT_PAGE","latitude":-2.698592801035996,"longitude":-78.60343912266555,"searchDetail":null,"caption":"Palmas, Azuay, Ecuador","name":"Palmas"},{"geoId":"553248635976386313","destinationId":"12527667","landmarkCityDestinationId":null,"type":"NEIGHBORHOOD","redirectPage":"DEFAULT_PAGE","latitude":-2.886929302476624,"longitude":-79.02680572151344,"searchDetail":null,"caption":"San Sebastián, Cuenca, Azuay, Ecuador","name":"San Sebastián"},{"geoId":"553248635975871657","destinationId":"12524102","landmarkCityDestinationId":null,"type":"CITY","redirectPage":"DEFAULT_PAGE","latitude":-3.024671616985845,"longitude":-78.71654592651109,"searchDetail":null,"caption":"Principal, Azuay, Ecuador","name":"Principal"},{"geoId":"739210059899584512","destinationId":"739210059899584512","landmarkCityDestinationId":null,"type":"CITY","redirectPage":"DEFAULT_PAGE","latitude":-3.0263134490816954,"longitude":-78.76281088049963,"searchDetail":null,"caption":"Güel, Azuay, Ecuador","name":"Güel"},{"geoId":"3000461391","destinationId":"10428091","landmarkCityDestinationId":null,"type":"CITY","redirectPage":"DEFAULT_PAGE","latitude":-3.14828,"longitude":-79.103828,"searchDetail":null,"caption":"Giron, Azuay, Ecuador","name":"Giron"},{"geoId":"739209333404221440","destinationId":"739209333404221440","landmarkCityDestinationId":null,"type":"CITY","redirectPage":"DEFAULT_PAGE","latitude":-3.2314363332580736,"longitude":-79.24425242245984,"searchDetail":null,"caption":"Asuncion, Azuay, Ecuador","name":"Asuncion"},{"geoId":"6350738","destinationId":"1902046","landmarkCityDestinationId":null,"type":"CITY","redirectPage":"DEFAULT_PAGE","latitude":-3.2845211489744552,"longitude":-79.04288279542307,"searchDetail":null,"caption":"Nabon, Azuay, Ecuador","name":"Nabon"},{"geoId":"739210153225236480","destinationId":"739210153225236480","landmarkCityDestinationId":null,"type":"CITY","redirectPage":"DEFAULT_PAGE","latitude":-3.096483769763451,"longitude":-79.24640754898066,"searchDetail":null,"caption":"Chumblín, Azuay, Ecuador","name":"Chumblín"}]},{"group":"HOTEL_GROUP","entities":[]},{"group":"LANDMARK_GROUP","entities":[]},{"group":"TRANSPORT_GROUP","entities":[]}],"geocodeFallback":false}