{"term":"esmeraldas,ecuador","moresuggestions":10,"autoSuggestInstance":null,"trackingID":"9dad9be27a4d4c989e3e97290c30cd86","misspellingfallback":false,"suggestions":[{"group":"CITY_GROUP","entities":[{"geoId":"553248634867083871","destinationId":"10996972","landmarkCityDestinationId":null,"type":"CITY","redirectPage":"DEFAULT_PAGE","latitude":0.9369298794709101,"longitude":-79.79836996484302,"searchDetail":null,"caption":"Tonsupa, Esmeraldas Province, Ecuador","name":"Tonsupa"},{"geoId":"739209959928381440","destinationId":"739209959928381440","landmarkCityDestinationId":null,"type":"CITY","redirectPage":"DEFAULT_PAGE","latitude":1.0170523159891514,"longitude":-78.99908601050404,"searchDetail":null,"caption":"Borb贸n, Esmeraldas Province, Ecuador","name":"Borb贸n"},{"geoId":"739208840680255488","destinationId":"739208840680255488","landmarkCityDestinationId":null,"type":"CITY","redirectPage":"DEFAULT_PAGE","latitude":0.7745730911180627,"longitude":-79.56395387285635,"searchDetail":null,"caption":"Chinca, Esmeraldas Province, Ecuador","name":"Chinca"},{"geoId":"739210206247272448","destinationId":"739210206247272448","landmarkCityDestinationId":null,"type":"CITY","redirectPage":"DEFAULT_PAGE","latitude":1.2490584894616958,"longitude":-78.64060426065008,"searchDetail":null,"caption":"Mataje, Esmeraldas Province, Ecuador","name":"Mataje"},{"geoId":"739209971737243648","destinationId":"739209971737243648","landmarkCityDestinationId":null,"type":"CITY","redirectPage":"DEFAULT_PAGE","latitude":1.2144448751397925,"longitude":-78.98280215149134,"searchDetail":null,"caption":"Valdez, Esmeraldas Province, Ecuador","name":"Valdez"},{"geoId":"739209562674327552","destinationId":"739209562674327552","landmarkCityDestinationId":null,"type":"CITY","redirectPage":"DEFAULT_PAGE","latitude":0.5265675420449156,"longitude":-79.45746994881267,"searchDetail":null,"caption":"Chura, Esmeraldas Province, Ecuador","name":"Chura"},{"geoId":"739210095093821440","destinationId":"739210095093821440","landmarkCityDestinationId":null,"type":"CITY","redirectPage":"DEFAULT_PAGE","latitude":0.667387438146238,"longitude":-79.49670427712141,"searchDetail":null,"caption":"Majua, Esmeraldas Province, Ecuador","name":"Majua"},{"geoId":"739209377765244928","destinationId":"739209377765244928","landmarkCityDestinationId":null,"type":"CITY","redirectPage":"DEFAULT_PAGE","latitude":1.1722213798161465,"longitude":-78.76497167044181,"searchDetail":null,"caption":"Calderon, Esmeraldas Province, Ecuador","name":"Calderon"},{"geoId":"3000463817","destinationId":"10428838","landmarkCityDestinationId":null,"type":"CITY","redirectPage":"DEFAULT_PAGE","latitude":0.79859,"longitude":-80.062073,"searchDetail":null,"caption":"Galera, Esmeraldas Province, Ecuador","name":"Galera"},{"geoId":"553248635975859118","destinationId":"12467868","landmarkCityDestinationId":null,"type":"CITY","redirectPage":"DEFAULT_PAGE","latitude":0.3269943000053785,"longitude":-79.96158611263513,"searchDetail":null,"caption":"Salima, Esmeraldas Province, Ecuador","name":"Salima"},{"geoId":"553248635975855180","destinationId":"12471357","landmarkCityDestinationId":null,"type":"CITY","redirectPage":"DEFAULT_PAGE","latitude":0.6377728899093933,"longitude":-80.04324443840791,"searchDetail":null,"caption":"Bunche, Esmeraldas Province, Ecuador","name":"Bunche"},{"geoId":"739208181153214464","destinationId":"739208181153214464","landmarkCityDestinationId":null,"type":"CITY","redirectPage":"DEFAULT_PAGE","latitude":0.9898805809483179,"longitude":-78.68872514385005,"searchDetail":null,"caption":"Urbina, Esmeraldas Province, Ecuador","name":"Urbina"},{"geoId":"739210166988587008","destinationId":"739210166988587008","landmarkCityDestinationId":null,"type":"CITY","redirectPage":"DEFAULT_PAGE","latitude":0.626849931621713,"longitude":-79.54872048040065,"searchDetail":null,"caption":"Viche, Esmeraldas Province, Ecuador","name":"Viche"},{"geoId":"739208203139756032","destinationId":"739208203139756032","landmarkCityDestinationId":null,"type":"CITY","redirectPage":"DEFAULT_PAGE","latitude":1.4133065480792586,"longitude":-78.85814445217052,"searchDetail":null,"caption":"Anc贸n, Esmeraldas Province, Ecuador","name":"Anc贸n"}]},{"group":"HOTEL_GROUP","entities":[{"geoId":"3461937","destinationId":"341170","landmarkCityDestinationId":null,"type":"HOTEL","redirectPage":"DEFAULT_PAGE","latitude":0.491731,"longitude":-80.045697,"searchDetail":null,"caption":"Royal Decameron Mompiche - All Inclusive, Bolivar, Esmeraldas Province, Ecuador","name":"Royal Decameron Mompiche - All Inclusive"}]},{"group":"LANDMARK_GROUP","entities":[]},{"group":"TRANSPORT_GROUP","entities":[]}],"geocodeFallback":false}