{"term":"guayas,ecuador","moresuggestions":10,"autoSuggestInstance":null,"trackingID":"3ce376aae0f14f6e9f85a246934ca3e5","misspellingfallback":false,"suggestions":[{"group":"CITY_GROUP","entities":[{"geoId":"6337570","destinationId":"427725","landmarkCityDestinationId":null,"type":"CITY","redirectPage":"DEFAULT_PAGE","latitude":-2.2881120566221615,"longitude":-80.08944867983072,"searchDetail":null,"caption":"Guayaquil, Guayaquil, Guayas, Ecuador","name":"Guayaquil"},{"geoId":"6337229","destinationId":"427891","landmarkCityDestinationId":null,"type":"CITY","redirectPage":"DEFAULT_PAGE","latitude":-2.0028681249623332,"longitude":-79.77195672595182,"searchDetail":null,"caption":"Samborondon, Guayas, Ecuador","name":"Samborondon"},{"geoId":"553248633981744847","destinationId":"10874296","landmarkCityDestinationId":null,"type":"NEIGHBORHOOD","redirectPage":"DEFAULT_PAGE","latitude":-2.162866547445079,"longitude":-79.90834126423356,"searchDetail":null,"caption":"Urdesa, Guayaquil, Guayas, Ecuador","name":"Urdesa"},{"geoId":"6325948","destinationId":"431546","landmarkCityDestinationId":null,"type":"CITY","redirectPage":"DEFAULT_PAGE","latitude":-2.2301510285072026,"longitude":-79.78263120943423,"searchDetail":null,"caption":"Duran, Guayas, Ecuador","name":"Duran"},{"geoId":"739208411879780352","destinationId":"739208411879780352","landmarkCityDestinationId":null,"type":"CITY","redirectPage":"DEFAULT_PAGE","latitude":-2.5898902978630676,"longitude":-79.5134566282985,"searchDetail":null,"caption":"Jesús María, Guayas, Ecuador","name":"Jesús María"},{"geoId":"739208193279115264","destinationId":"739208193279115264","landmarkCityDestinationId":null,"type":"CITY","redirectPage":"DEFAULT_PAGE","latitude":-1.8872107793883428,"longitude":-79.72581247830779,"searchDetail":null,"caption":"La Victoria, Guayas, Ecuador","name":"La Victoria"},{"geoId":"739208274268024832","destinationId":"739208274268024832","landmarkCityDestinationId":null,"type":"CITY","redirectPage":"DEFAULT_PAGE","latitude":-2.715243874081078,"longitude":-80.01121334707244,"searchDetail":null,"caption":"Puná, Guayas, Ecuador","name":"Puná"},{"geoId":"553248635975857815","destinationId":"12463443","landmarkCityDestinationId":null,"type":"CITY","redirectPage":"DEFAULT_PAGE","latitude":-2.4567211256227424,"longitude":-80.28340113606137,"searchDetail":null,"caption":"San Lorenzo, Guayas, Ecuador","name":"San Lorenzo"},{"geoId":"553248635975855772","destinationId":"12479245","landmarkCityDestinationId":null,"type":"NEIGHBORHOOD","redirectPage":"DEFAULT_PAGE","latitude":-2.209541,"longitude":-79.81635349999999,"searchDetail":null,"caption":"Delia, Duran, Guayas, Ecuador","name":"Delia"},{"geoId":"6353499","destinationId":"1904766","landmarkCityDestinationId":null,"type":"CITY","redirectPage":"DEFAULT_PAGE","latitude":-2.699838269264123,"longitude":-80.26958294573811,"searchDetail":null,"caption":"Posorja, Guayas, Ecuador","name":"Posorja"},{"geoId":"553248635975868830","destinationId":"12472363","landmarkCityDestinationId":null,"type":"CITY","redirectPage":"DEFAULT_PAGE","latitude":-1.9775453697545422,"longitude":-79.79179254990626,"searchDetail":null,"caption":"Tarifa, Guayas, Ecuador","name":"Tarifa"},{"geoId":"553248635974901023","destinationId":"11399006","landmarkCityDestinationId":null,"type":"CITY","redirectPage":"DEFAULT_PAGE","latitude":-1.86218,"longitude":-79.977669,"searchDetail":null,"caption":"Daule, Daule, Guayas, Ecuador","name":"Daule"}]},{"group":"HOTEL_GROUP","entities":[]},{"group":"LANDMARK_GROUP","entities":[{"geoId":"6331045","destinationId":"1802952","landmarkCityDestinationId":"427725","type":"LANDMARK","redirectPage":"DEFAULT_PAGE","latitude":-2.203079,"longitude":-79.893475,"searchDetail":null,"caption":"Guayaquil Children's Hospital, Guayaquil, Guayas, Ecuador","name":"Guayaquil Children's Hospital"},{"geoId":"6112450","destinationId":"1672264","landmarkCityDestinationId":"427587","type":"LANDMARK","redirectPage":"DEFAULT_PAGE","latitude":-2.645505808440353,"longitude":-80.38731065869092,"searchDetail":null,"caption":"General Villamil Beach, Playas, Guayas, Ecuador","name":"General Villamil Beach"},{"geoId":"553248621532375180","destinationId":"10518693","landmarkCityDestinationId":"427725","type":"LANDMARK","redirectPage":"DEFAULT_PAGE","latitude":-2.202334,"longitude":-79.882429,"searchDetail":null,"caption":"Mercado Sur, Guayaquil, Guayas, Ecuador","name":"Mercado Sur"}]},{"group":"TRANSPORT_GROUP","entities":[]}],"geocodeFallback":false}