{"term":"imbabura,ecuador","moresuggestions":10,"autoSuggestInstance":null,"trackingID":"6deab90fbedb455d9f2a5fb56db0ab84","misspellingfallback":false,"suggestions":[{"group":"CITY_GROUP","entities":[{"geoId":"553248635975863413","destinationId":"12494931","landmarkCityDestinationId":null,"type":"CITY","redirectPage":"DEFAULT_PAGE","latitude":0.37865339162161954,"longitude":-78.15728623728819,"searchDetail":null,"caption":"Imbaya, Imbabura, Ecuador","name":"Imbaya"},{"geoId":"180439","destinationId":"10341234","landmarkCityDestinationId":null,"type":"CITY","redirectPage":"DEFAULT_PAGE","latitude":0.363453,"longitude":-78.124128,"searchDetail":null,"caption":"Ibarra, Ibarra, Imbabura, Ecuador","name":"Ibarra"},{"geoId":"553248635964618297","destinationId":"11392156","landmarkCityDestinationId":null,"type":"CITY","redirectPage":"DEFAULT_PAGE","latitude":0.2666619349795852,"longitude":-78.12797816680273,"searchDetail":null,"caption":"La Esperanza, Imbabura, Ecuador","name":"La Esperanza"},{"geoId":"180683","destinationId":"426858","landmarkCityDestinationId":null,"type":"CITY","redirectPage":"DEFAULT_PAGE","latitude":0.21518071998467816,"longitude":-78.26677047776026,"searchDetail":null,"caption":"Otavalo, Otavalo, Imbabura, Ecuador","name":"Otavalo"},{"geoId":"739209139973664768","destinationId":"739209139973664768","landmarkCityDestinationId":null,"type":"CITY","redirectPage":"DEFAULT_PAGE","latitude":0.7818255490115543,"longitude":-78.38526349484115,"searchDetail":null,"caption":"Lita, Imbabura, Ecuador","name":"Lita"},{"geoId":"648619800488419328","destinationId":"648619800488419328","landmarkCityDestinationId":null,"type":"CITY","redirectPage":"DEFAULT_PAGE","latitude":0.29808219457766194,"longitude":-78.78756682843544,"searchDetail":null,"caption":"García Moreno, Imbabura, Ecuador","name":"García Moreno"},{"geoId":"739209835013586944","destinationId":"739209835013586944","landmarkCityDestinationId":null,"type":"CITY","redirectPage":"DEFAULT_PAGE","latitude":0.4935986743800412,"longitude":-78.13839996912556,"searchDetail":null,"caption":"Salinas, Imbabura, Ecuador","name":"Salinas"},{"geoId":"553248635964618510","destinationId":"11394215","landmarkCityDestinationId":null,"type":"CITY","redirectPage":"DEFAULT_PAGE","latitude":0.22047257877382412,"longitude":-78.08225673689789,"searchDetail":null,"caption":"Angochagua, Imbabura, Ecuador","name":"Angochagua"},{"geoId":"739208211981549568","destinationId":"739208211981549568","landmarkCityDestinationId":null,"type":"CITY","redirectPage":"DEFAULT_PAGE","latitude":0.4244770963065951,"longitude":-78.4234976559305,"searchDetail":null,"caption":"Apuela, Imbabura, Ecuador","name":"Apuela"},{"geoId":"6351089","destinationId":"1902392","landmarkCityDestinationId":null,"type":"CITY","redirectPage":"DEFAULT_PAGE","latitude":0.40865335230789923,"longitude":-78.02079457395298,"searchDetail":null,"caption":"Ambuqui, Imbabura, Ecuador","name":"Ambuqui"},{"geoId":"739208999792439296","destinationId":"739208999792439296","landmarkCityDestinationId":null,"type":"CITY","redirectPage":"DEFAULT_PAGE","latitude":0.42476700433688436,"longitude":-78.26533077437949,"searchDetail":null,"caption":"San Blas, Imbabura, Ecuador","name":"San Blas"},{"geoId":"6326198","destinationId":"432589","landmarkCityDestinationId":null,"type":"CITY","redirectPage":"DEFAULT_PAGE","latitude":0.45635094456871034,"longitude":-78.19578106615857,"searchDetail":null,"caption":"Tumbabiro, Imbabura, Ecuador","name":"Tumbabiro"},{"geoId":"739209165633507328","destinationId":"739209165633507328","landmarkCityDestinationId":null,"type":"CITY","redirectPage":"DEFAULT_PAGE","latitude":0.3639697181852287,"longitude":-77.87578585200076,"searchDetail":null,"caption":"Chuga, Imbabura, Ecuador","name":"Chuga"},{"geoId":"739208536171687936","destinationId":"739208536171687936","landmarkCityDestinationId":null,"type":"CITY","redirectPage":"DEFAULT_PAGE","latitude":0.2664026980167939,"longitude":-78.50460528504767,"searchDetail":null,"caption":"Selva Alegre, Imbabura, Ecuador","name":"Selva Alegre"},{"geoId":"739209109746503680","destinationId":"739209109746503680","landmarkCityDestinationId":null,"type":"CITY","redirectPage":"DEFAULT_PAGE","latitude":0.6534333630952722,"longitude":-78.2306964660524,"searchDetail":null,"caption":"Carolina, Imbabura, Ecuador","name":"Carolina"}]},{"group":"HOTEL_GROUP","entities":[]},{"group":"LANDMARK_GROUP","entities":[]},{"group":"TRANSPORT_GROUP","entities":[]}],"geocodeFallback":false}