{"term":"manabi,ecuador","moresuggestions":10,"autoSuggestInstance":null,"trackingID":"7fc13af618e3407e8c72bd2d8c6cd67d","misspellingfallback":false,"suggestions":[{"group":"CITY_GROUP","entities":[{"geoId":"6053676","destinationId":"1644773","landmarkCityDestinationId":null,"type":"CITY","redirectPage":"DEFAULT_PAGE","latitude":-0.95376,"longitude":-80.717529,"searchDetail":null,"caption":"Manta, Manta, Manabi, Ecuador","name":"Manta"},{"geoId":"6347549","destinationId":"1812564","landmarkCityDestinationId":null,"type":"CITY","redirectPage":"DEFAULT_PAGE","latitude":-0.39064781401659154,"longitude":-80.40232240309916,"searchDetail":null,"caption":"Canoa, Manabi, Ecuador","name":"Canoa"},{"geoId":"6158225","destinationId":"428087","landmarkCityDestinationId":null,"type":"CITY","redirectPage":"DEFAULT_PAGE","latitude":-1.324818347404526,"longitude":-80.69981708493954,"searchDetail":null,"caption":"Puerto Cayo, Manabi, Ecuador","name":"Puerto Cayo"},{"geoId":"6349987","destinationId":"1901331","landmarkCityDestinationId":null,"type":"CITY","redirectPage":"DEFAULT_PAGE","latitude":-0.8848371682876117,"longitude":-80.53297990751143,"searchDetail":null,"caption":"Crucita, Manabi, Ecuador","name":"Crucita"},{"geoId":"6346851","destinationId":"427181","landmarkCityDestinationId":null,"type":"CITY","redirectPage":"DEFAULT_PAGE","latitude":0.22962498953395402,"longitude":-79.86812514295191,"searchDetail":null,"caption":"Cojimies, Manabi, Ecuador","name":"Cojimies"},{"geoId":"6329241","destinationId":"1802036","landmarkCityDestinationId":null,"type":"CITY","redirectPage":"DEFAULT_PAGE","latitude":-1.6368836589895024,"longitude":-80.80189261146835,"searchDetail":null,"caption":"Salango, Manabi, Ecuador","name":"Salango"},{"geoId":"6348088","destinationId":"1812891","landmarkCityDestinationId":null,"type":"CITY","redirectPage":"DEFAULT_PAGE","latitude":-0.22000880352505775,"longitude":-80.22726360345933,"searchDetail":null,"caption":"Jama, Manabi, Ecuador","name":"Jama"},{"geoId":"6342701","destinationId":"426297","landmarkCityDestinationId":null,"type":"CITY","redirectPage":"DEFAULT_PAGE","latitude":-1.4676459682355505,"longitude":-80.73706234010137,"searchDetail":null,"caption":"Machalilla, Manabi, Ecuador","name":"Machalilla"},{"geoId":"3000005981","destinationId":"10380271","landmarkCityDestinationId":null,"type":"CITY","redirectPage":"DEFAULT_PAGE","latitude":-0.783333,"longitude":-80.516701,"searchDetail":null,"caption":"San Jacinto, Manabi, Ecuador","name":"San Jacinto"},{"geoId":"553248635964221733","destinationId":"11421181","landmarkCityDestinationId":null,"type":"CITY","redirectPage":"DEFAULT_PAGE","latitude":-1.6363023617249475,"longitude":-80.8278736087722,"searchDetail":null,"caption":"Puerto Rico, Manabi, Ecuador","name":"Puerto Rico"},{"geoId":"6353496","destinationId":"1904763","landmarkCityDestinationId":null,"type":"CITY","redirectPage":"DEFAULT_PAGE","latitude":0.07184571960277472,"longitude":-79.85810046404373,"searchDetail":null,"caption":"Pedernales, Pedernales, Manabi, Ecuador","name":"Pedernales"},{"geoId":"553248635975872050","destinationId":"12515280","landmarkCityDestinationId":null,"type":"CITY","redirectPage":"DEFAULT_PAGE","latitude":-1.0603922691110492,"longitude":-80.83024393380015,"searchDetail":null,"caption":"San Lorenzo, Manabi, Ecuador","name":"San Lorenzo"},{"geoId":"2913","destinationId":"426656","landmarkCityDestinationId":null,"type":"CITY","redirectPage":"DEFAULT_PAGE","latitude":-1.0811230119189033,"longitude":-80.4609209572015,"searchDetail":null,"caption":"Portoviejo, Portoviejo, Manabi, Ecuador","name":"Portoviejo"},{"geoId":"6144041","destinationId":"429692","landmarkCityDestinationId":null,"type":"CITY","redirectPage":"DEFAULT_PAGE","latitude":-1.560037,"longitude":-80.811163,"searchDetail":null,"caption":"Puerto Lopez, Manabi, Ecuador","name":"Puerto Lopez"},{"geoId":"553248635975861782","destinationId":"12458510","landmarkCityDestinationId":null,"type":"CITY","redirectPage":"DEFAULT_PAGE","latitude":-0.9196430871990133,"longitude":-80.05542641359116,"searchDetail":null,"caption":"Calceta, Manabi, Ecuador","name":"Calceta"}]},{"group":"HOTEL_GROUP","entities":[]},{"group":"LANDMARK_GROUP","entities":[]},{"group":"TRANSPORT_GROUP","entities":[]}],"geocodeFallback":false}