{"term":"pichincha,ecuador","moresuggestions":10,"autoSuggestInstance":null,"trackingID":"91dab3c701a847faaed36029705d49d3","misspellingfallback":false,"suggestions":[{"group":"CITY_GROUP","entities":[{"geoId":"3623","destinationId":"426738","landmarkCityDestinationId":null,"type":"CITY","redirectPage":"DEFAULT_PAGE","latitude":-0.220299,"longitude":-78.511714,"searchDetail":null,"caption":"Quito, Pichincha, Ecuador","name":"Quito"},{"geoId":"6326012","destinationId":"1800396","landmarkCityDestinationId":null,"type":"NEIGHBORHOOD","redirectPage":"DEFAULT_PAGE","latitude":-0.21968149866112982,"longitude":-78.51275698475546,"searchDetail":null,"caption":"Quito Historic Center, Quito, Pichincha, Ecuador","name":"Quito Historic Center"},{"geoId":"3000006046","destinationId":"10380259","landmarkCityDestinationId":null,"type":"CITY","redirectPage":"DEFAULT_PAGE","latitude":-0.2,"longitude":-78.433296,"searchDetail":null,"caption":"Cumbayá, Pichincha, Ecuador","name":"Cumbayá"},{"geoId":"6132883","destinationId":"10341448","landmarkCityDestinationId":null,"type":"CITY","redirectPage":"DEFAULT_PAGE","latitude":-0.053329,"longitude":-78.774669,"searchDetail":null,"caption":"Mindo, Pichincha, Ecuador","name":"Mindo"},{"geoId":"6247494","destinationId":"427114","landmarkCityDestinationId":null,"type":"CITY","redirectPage":"DEFAULT_PAGE","latitude":-0.14069865641653118,"longitude":-78.35476288619238,"searchDetail":null,"caption":"Tababela, Pichincha, Ecuador","name":"Tababela"},{"geoId":"6251594","destinationId":"430318","landmarkCityDestinationId":null,"type":"CITY","redirectPage":"DEFAULT_PAGE","latitude":-0.1674242776675274,"longitude":-78.36962495595662,"searchDetail":null,"caption":"Puembo, Pichincha, Ecuador","name":"Puembo"},{"geoId":"553248635171464267","destinationId":"11075899","landmarkCityDestinationId":null,"type":"CITY","redirectPage":"DEFAULT_PAGE","latitude":0.1660780022961204,"longitude":-78.86176526475326,"searchDetail":null,"caption":"Mashpi, Pacto, Pichincha, Ecuador","name":"Mashpi"},{"geoId":"6353439","destinationId":"1904707","landmarkCityDestinationId":null,"type":"CITY","redirectPage":"DEFAULT_PAGE","latitude":-0.05410230128899479,"longitude":-78.34332932772412,"searchDetail":null,"caption":"Guayllabamba, Pichincha, Ecuador","name":"Guayllabamba"},{"geoId":"6246475","destinationId":"1760173","landmarkCityDestinationId":null,"type":"CITY","redirectPage":"DEFAULT_PAGE","latitude":-0.21982581067626938,"longitude":-78.3947803661748,"searchDetail":null,"caption":"Tumbaco, Pichincha, Ecuador","name":"Tumbaco"},{"geoId":"6341511","destinationId":"428616","landmarkCityDestinationId":null,"type":"CITY","redirectPage":"DEFAULT_PAGE","latitude":-0.2812946151673215,"longitude":-78.26746282452481,"searchDetail":null,"caption":"Pifo, Pichincha, Ecuador","name":"Pifo"},{"geoId":"553248635975102806","destinationId":"11403766","landmarkCityDestinationId":null,"type":"CITY","redirectPage":"DEFAULT_PAGE","latitude":0.15598836387180812,"longitude":-79.2394691517776,"searchDetail":null,"caption":"Puerto Quito, Puerto Quito, Pichincha, Ecuador","name":"Puerto Quito"},{"geoId":"553248635975864238","destinationId":"12515586","landmarkCityDestinationId":null,"type":"CITY","redirectPage":"DEFAULT_PAGE","latitude":-0.44999999999999996,"longitude":-78.33333300000001,"searchDetail":null,"caption":"Secas, Pintag, Pichincha, Ecuador","name":"Secas"},{"geoId":"553248635975860678","destinationId":"12488347","landmarkCityDestinationId":null,"type":"CITY","redirectPage":"DEFAULT_PAGE","latitude":-0.3334026427543562,"longitude":-78.47820881046518,"searchDetail":null,"caption":"San Rafael, Pichincha, Ecuador","name":"San Rafael"},{"geoId":"553248635933027196","destinationId":"11410193","landmarkCityDestinationId":null,"type":"CITY","redirectPage":"DEFAULT_PAGE","latitude":-0.25290948306019445,"longitude":-78.43763959454907,"searchDetail":null,"caption":"Guangopolo, Pichincha, Ecuador","name":"Guangopolo"}]},{"group":"HOTEL_GROUP","entities":[]},{"group":"LANDMARK_GROUP","entities":[{"geoId":"553248633861906743","destinationId":"10802650","landmarkCityDestinationId":"427519","type":"LANDMARK","redirectPage":"DEFAULT_PAGE","latitude":-0.684927,"longitude":-78.437053,"searchDetail":null,"caption":"Cotopaxi Mountain, Machachi, Pichincha, Ecuador","name":"Cotopaxi Mountain"}]},{"group":"TRANSPORT_GROUP","entities":[]}],"geocodeFallback":false}